[{"id": 8, "tipo": "anfibio", "nombre_co": "Rana de vidrio", "nombre_ci": "Hyalinobathracium", "habitat": "selva h\u00fameda boyacense", "latitud": 4.62147, "longitud": -72.21475, "altitud": 1400, "imagen": "https://static.inaturalist.org/photos/73725/small.JPG"}, 
 {"id": 9, "tipo": "anfibio", "nombre_co": "Rana gigante", "nombre_ci": "centrolene hybrida", "habitat": "Garagoa", "latitud": 4.51244, "longitud": -72.58874, "altitud": 1800, "imagen": "https://static.inaturalist.org/photos/65168/small.JPG"}, 
 {"id": 10, "tipo": "reptil", "nombre_co": "culebra cascabel", "nombre_ci": "cascabelensis", "habitat": "Puerto Boyac\u00e1", "latitud": 4.62558, "longitud": -73.2214, "altitud": 600, "imagen": "https://zooguadalajaramxa.imgix.net/animal/286/foto-three.jpeg"}, 
 {"tipo":"Mamifero","nombre_co":"Armadillo de Nueve Bandas","nombre_ci":"Dasypus novemcinctus","habitat":"Susacon, Boyaca","latitud":	6.22380426	,"longitud":	-72.69103061	,"altitud":	2480	,"imagen":"https://encrypted-tbn0.gstatic.com/images?q=tbn:ANd9GcTmcqeCgKAJa8GP4aOJUZtD2n1icFnKMfAwaw&s"},
 {"tipo":"Ave","nombre_co":"Siriri Bueyero","nombre_ci":"Machetornis rixosa","habitat":"Cinega, Boyaca","latitud":	5.4127293408	,"longitud":	-73.3063062653	,"altitud":	2463	,"imagen":"https://inaturalist-open-data.s3.amazonaws.com/photos/390893565/large.jpeg","direccion_web":"https://colombia.inaturalist.org/observations/220765324"}]